{
  "hasZ" : true,
  "type" : "FeatureCollection",
  "features" : [{"type":"Feature","id":1,"geometry":{"type":"Point","coordinates":[31.317385509000076,30.117294190000052,0]},"properties":{"OBJECTID":1,"Name":"الفرجاني ش عين شمس","FolderPath":"PT.kmz/PT","SymbolID":0,"AltMode":-1,"Base":0,"Snippet":"","PopupInfo":"محطة الفرجاني ش عين شمس\nType C","HasLabel":-1,"LabelID":0}},{"type":"Feature","id":2,"geometry":{"type":"Point","coordinates":[31.339721067000028,30.118695675000026,0]},"properties":{"OBJECTID":2,"Name":"ميدان الالف مسكن (أ)","FolderPath":"PT.kmz/PT","SymbolID":0,"AltMode":-1,"Base":0,"Snippet":"","PopupInfo":"محطة ميدان الالف مسكن (أ)\nامام محطة المترو\nType C","HasLabel":-1,"LabelID":0}},{"type":"Feature","id":3,"geometry":{"type":"Point","coordinates":[31.339135083000031,30.118705822000038,0]},"properties":{"OBJECTID":3,"Name":"ميدان الالف مسكن (ب)","FolderPath":"PT.kmz/PT","SymbolID":0,"AltMode":-1,"Base":0,"Snippet":"","PopupInfo":"ميدان الالف مسكن (ب)\nامام كشري الغباشي\nType C","HasLabel":-1,"LabelID":0}},{"type":"Feature","id":4,"geometry":{"type":"Point","coordinates":[31.324490968000077,30.10644717200006,0]},"properties":{"OBJECTID":4,"Name":"التجنيد (أ)","FolderPath":"PT.kmz/PT","SymbolID":0,"AltMode":-1,"Base":0,"Snippet":"","PopupInfo":"التجنيد (أ) \nامام كشري هند\nType C","HasLabel":-1,"LabelID":0}},{"type":"Feature","id":5,"geometry":{"type":"Point","coordinates":[31.323690565000049,30.106308777000038,0]},"properties":{"OBJECTID":5,"Name":"التجنيد (ب)","FolderPath":"PT.kmz/PT","SymbolID":0,"AltMode":-1,"Base":0,"Snippet":"","PopupInfo":"محطة التجنيد (ب)\nامام محل العصير \nType C","HasLabel":-1,"LabelID":0}},{"type":"Feature","id":6,"geometry":{"type":"Point","coordinates":[31.338329060000035,30.136816086000067,0]},"properties":{"OBJECTID":6,"Name":"مزلقان العشرين (أ)","FolderPath":"PT.kmz/PT","SymbolID":0,"AltMode":-1,"Base":0,"Snippet":"","PopupInfo":"مزلقان العشرين (أ)\nامام محل الكشري\nType C","HasLabel":-1,"LabelID":0}},{"type":"Feature","id":7,"geometry":{"type":"Point","coordinates":[31.337907289000043,30.137310973000069,0]},"properties":{"OBJECTID":7,"Name":"مزلقان العشرين (ب)","FolderPath":"PT.kmz/PT","SymbolID":0,"AltMode":-1,"Base":0,"Snippet":"","PopupInfo":"مزلقان العشرين (ب)\nامام شركه الاصدقاء لتجاره السيراميك و الادوات الصحيه\n\nType C","HasLabel":-1,"LabelID":0}},{"type":"Feature","id":8,"geometry":{"type":"Point","coordinates":[31.330549190000056,30.126167402000078,0]},"properties":{"OBJECTID":8,"Name":"مودرن سكول احمد عصمت","FolderPath":"PT.kmz/PT","SymbolID":0,"AltMode":-1,"Base":0,"Snippet":"","PopupInfo":"Type B","HasLabel":-1,"LabelID":0}},{"type":"Feature","id":9,"geometry":{"type":"Point","coordinates":[31.351635442000031,30.126736841000024,0]},"properties":{"OBJECTID":9,"Name":"العرب (أ)","FolderPath":"PT.kmz/PT","SymbolID":0,"AltMode":-1,"Base":0,"Snippet":"","PopupInfo":"محطة العرب (أ)\nاتجاه مسكن والتجنيد\nType C","HasLabel":-1,"LabelID":0}},{"type":"Feature","id":10,"geometry":{"type":"Point","coordinates":[31.351748575000045,30.126314378000075,0]},"properties":{"OBJECTID":10,"Name":"محطة العرب (ب)","FolderPath":"PT.kmz/PT","SymbolID":0,"AltMode":-1,"Base":0,"Snippet":"","PopupInfo":"محطة العرب (ب)\nاتجاه الجراج و السلام\nType C","HasLabel":-1,"LabelID":0}},{"type":"Feature","id":11,"geometry":{"type":"Point","coordinates":[31.36067911400005,30.128407061000075,0]},"properties":{"OBJECTID":11,"Name":"الجراج (أ)","FolderPath":"PT.kmz/PT","SymbolID":0,"AltMode":-1,"Base":0,"Snippet":"","PopupInfo":"محطة الجراج (أ)\nامام ايتوال\nType C","HasLabel":-1,"LabelID":0}},{"type":"Feature","id":12,"geometry":{"type":"Point","coordinates":[31.360711998000056,30.127945790000069,0]},"properties":{"OBJECTID":12,"Name":"الجراج (ب)","FolderPath":"PT.kmz/PT","SymbolID":0,"AltMode":-1,"Base":0,"Snippet":"","PopupInfo":"محطة الجراج (ب)\nاتجاه السلام\nType C","HasLabel":-1,"LabelID":0}},{"type":"Feature","id":13,"geometry":{"type":"Point","coordinates":[31.350307249000025,30.136598769000045,0]},"properties":{"OBJECTID":13,"Name":"مساكن عين شمس (أ)","FolderPath":"PT.kmz/PT","SymbolID":0,"AltMode":-1,"Base":0,"Snippet":"","PopupInfo":"مساكن عين شمس (أ)\nامام النادي الثقافي\nType C","HasLabel":-1,"LabelID":0}},{"type":"Feature","id":14,"geometry":{"type":"Point","coordinates":[31.350677816000029,30.136845332000064,0]},"properties":{"OBJECTID":14,"Name":"مساكن عين شمس (ب)","FolderPath":"PT.kmz/PT","SymbolID":0,"AltMode":-1,"Base":0,"Snippet":"","PopupInfo":"مساكن عين شمس (ب)\nامام مشويات عاشور\nType C","HasLabel":-1,"LabelID":0}},{"type":"Feature","id":15,"geometry":{"type":"Point","coordinates":[31.359060518000035,30.139577440000039,0]},"properties":{"OBJECTID":15,"Name":"محل عصير ابو جمال (أ)","FolderPath":"PT.kmz/PT","SymbolID":0,"AltMode":-1,"Base":0,"Snippet":"","PopupInfo":"محل عصير ابو جمال (أ)\n\nType C","HasLabel":-1,"LabelID":0}},{"type":"Feature","id":16,"geometry":{"type":"Point","coordinates":[31.358951463000039,30.139796162000039,0]},"properties":{"OBJECTID":16,"Name":"محل عصير ابو جمال (ب)","FolderPath":"PT.kmz/PT","SymbolID":0,"AltMode":-1,"Base":0,"Snippet":"","PopupInfo":"محل عصير ابو جمال (ب)\nاما تبارك للزيوت و امام بريستا كافية\nType C","HasLabel":-1,"LabelID":0}},{"type":"Feature","id":17,"geometry":{"type":"Point","coordinates":[31.316687737000052,30.132647031000033,0]},"properties":{"OBJECTID":17,"Name":"الونش (ب)","FolderPath":"PT.kmz/PT","SymbolID":0,"AltMode":-1,"Base":0,"Snippet":"","PopupInfo":"محطة الونش (ب)\nامام اسماك المراكبي\nType C","HasLabel":-1,"LabelID":0}},{"type":"Feature","id":18,"geometry":{"type":"Point","coordinates":[31.316564344000028,30.132445148000045,0]},"properties":{"OBJECTID":18,"Name":"الونش (أ)","FolderPath":"PT.kmz/PT","SymbolID":0,"AltMode":-1,"Base":0,"Snippet":"","PopupInfo":"محطة الونش (أ)\nامام محل زلاشيش\nType C","HasLabel":-1,"LabelID":0}},{"type":"Feature","id":19,"geometry":{"type":"Point","coordinates":[31.310005044000036,30.133791809000058,0]},"properties":{"OBJECTID":19,"Name":"التوفيقية (أ)","FolderPath":"PT.kmz/PT","SymbolID":0,"AltMode":-1,"Base":0,"Snippet":"","PopupInfo":"محطة التوفيقية (أ)\nامام مسجد الرحمة\nType C","HasLabel":-1,"LabelID":0}},{"type":"Feature","id":20,"geometry":{"type":"Point","coordinates":[31.309929001000057,30.134150465000062,0]},"properties":{"OBJECTID":20,"Name":"التوفيقية (ب)","FolderPath":"PT.kmz/PT","SymbolID":0,"AltMode":-1,"Base":0,"Snippet":"","PopupInfo":"محطة التوفيقية (ب)\nامام محل العصير\nType C","HasLabel":-1,"LabelID":0}},{"type":"Feature","id":21,"geometry":{"type":"Point","coordinates":[31.308189010000035,30.127310228000056,0]},"properties":{"OBJECTID":21,"Name":"مستشفى النور المحمدي (أ)","FolderPath":"PT.kmz/PT","SymbolID":0,"AltMode":-1,"Base":0,"Snippet":"","PopupInfo":"محطة مستشفى النور المحمدي (أ)\nType C","HasLabel":-1,"LabelID":0}},{"type":"Feature","id":22,"geometry":{"type":"Point","coordinates":[31.308009467000034,30.127492582000059,0]},"properties":{"OBJECTID":22,"Name":"مستشفى النور المحمدي (ب)","FolderPath":"PT.kmz/PT","SymbolID":0,"AltMode":-1,"Base":0,"Snippet":"","PopupInfo":"محطة مستشفى النور المحمدي (ب)\nامام عمارات المسلة\nType C","HasLabel":-1,"LabelID":0}},{"type":"Feature","id":23,"geometry":{"type":"Point","coordinates":[31.312183292000043,30.129755394000028,0]},"properties":{"OBJECTID":23,"Name":"سنترال المطرية (أ)","FolderPath":"PT.kmz/PT","SymbolID":0,"AltMode":-1,"Base":0,"Snippet":"","PopupInfo":"محطة سنترال المطرية (أ)\nType C","HasLabel":-1,"LabelID":0}},{"type":"Feature","id":24,"geometry":{"type":"Point","coordinates":[31.312091223000039,30.129863941000053,0]},"properties":{"OBJECTID":24,"Name":"سنترال المطرية (ب)","FolderPath":"PT.kmz/PT","SymbolID":0,"AltMode":-1,"Base":0,"Snippet":"","PopupInfo":"محطة سنترال المطرية (ب)\nاتجاه مسطرد\nType C","HasLabel":-1,"LabelID":0}},{"type":"Feature","id":25,"geometry":{"type":"Point","coordinates":[31.307456755000032,30.120602527000074,0]},"properties":{"OBJECTID":25,"Name":"شجرة مريم (أ)","FolderPath":"PT.kmz/PT","SymbolID":0,"AltMode":-1,"Base":0,"Snippet":"","PopupInfo":"محطة شجرة مريم (أ)\nType B","HasLabel":-1,"LabelID":0}},{"type":"Feature","id":26,"geometry":{"type":"Point","coordinates":[31.307336402000033,30.120622485000069,0]},"properties":{"OBJECTID":26,"Name":"شجرة مريم (ب)","FolderPath":"PT.kmz/PT","SymbolID":0,"AltMode":-1,"Base":0,"Snippet":"","PopupInfo":"محطة شجرة مريم (ب)\nامام حاتي\nType B","HasLabel":-1,"LabelID":0}},{"type":"Feature","id":27,"geometry":{"type":"Point","coordinates":[31.300948267000024,30.122500044000049,0]},"properties":{"OBJECTID":27,"Name":"التعاون (أ)","FolderPath":"PT.kmz/PT","SymbolID":0,"AltMode":-1,"Base":0,"Snippet":"","PopupInfo":"محطة التعاون (أ)\nامام البنزينة\nType C","HasLabel":-1,"LabelID":0}},{"type":"Feature","id":28,"geometry":{"type":"Point","coordinates":[31.300603769000077,30.122623824000073,0]},"properties":{"OBJECTID":28,"Name":"التعاون (ب)","FolderPath":"PT.kmz/PT","SymbolID":0,"AltMode":-1,"Base":0,"Snippet":"","PopupInfo":"محطة التعاون (ب)\nامام محل العصير\nType C","HasLabel":-1,"LabelID":0}},{"type":"Feature","id":29,"geometry":{"type":"Point","coordinates":[31.306400881000059,30.115017629000079,0]},"properties":{"OBJECTID":29,"Name":"ميدان المطرية (أ)","FolderPath":"PT.kmz/PT","SymbolID":0,"AltMode":-1,"Base":0,"Snippet":"","PopupInfo":"محطة ميدان المطرية (أ)\nامام بنزينة موبيل\nType C","HasLabel":-1,"LabelID":0}},{"type":"Feature","id":30,"geometry":{"type":"Point","coordinates":[31.306314723000071,30.115826405000064,0]},"properties":{"OBJECTID":30,"Name":"ميدان المطرية (ب)","FolderPath":"PT.kmz/PT","SymbolID":0,"AltMode":-1,"Base":0,"Snippet":"","PopupInfo":"محطة ميدان المطرية (ب)\nامام عمارات المطرية الجديدة\nType C","HasLabel":-1,"LabelID":0}},{"type":"Feature","id":31,"geometry":{"type":"Point","coordinates":[31.30337032400007,30.107391204000066,0]},"properties":{"OBJECTID":31,"Name":"الجامع (ب)","FolderPath":"PT.kmz/PT","SymbolID":0,"AltMode":-1,"Base":0,"Snippet":"","PopupInfo":"محطة الجامع (ب)\nامام النساجون الشرقيون\nType C","HasLabel":-1,"LabelID":0}},{"type":"Feature","id":32,"geometry":{"type":"Point","coordinates":[31.30307474600005,30.107217090000063,0]},"properties":{"OBJECTID":32,"Name":"الجامع (أ)","FolderPath":"PT.kmz/PT","SymbolID":0,"AltMode":-1,"Base":0,"Snippet":"","PopupInfo":"محطة الجامع (أ)\nامام المسجد\nType C","HasLabel":-1,"LabelID":0}},{"type":"Feature","id":33,"geometry":{"type":"Point","coordinates":[31.310759006000069,30.111233515000038,0]},"properties":{"OBJECTID":33,"Name":"فيتنيس جيم (أ)","FolderPath":"PT.kmz/PT","SymbolID":0,"AltMode":-1,"Base":0,"Snippet":"","PopupInfo":"محطة فيتنيس جيم (أ)\nاتجاه الحلمية\n\nType A","HasLabel":-1,"LabelID":0}},{"type":"Feature","id":34,"geometry":{"type":"Point","coordinates":[31.310580928000036,30.111304078000046,0]},"properties":{"OBJECTID":34,"Name":"فيتنيس جيم (ب)","FolderPath":"PT.kmz/PT","SymbolID":0,"AltMode":-1,"Base":0,"Snippet":"","PopupInfo":"محطة فيتنيس جيم (ب)\nاتجاه سراي القبة\nامام مدرسة المكفوفين\nType A","HasLabel":-1,"LabelID":0}},{"type":"Feature","id":35,"geometry":{"type":"Point","coordinates":[31.308032928000046,30.107168269000056,0]},"properties":{"OBJECTID":35,"Name":"مونجيني ترعة الجبل (أ)","FolderPath":"PT.kmz/PT","SymbolID":0,"AltMode":-1,"Base":0,"Snippet":"","PopupInfo":"محطة مونجيني ترعة الجبل (أ)\nامام فرع مونجيني\nاتجاه سراي القبة\nType A","HasLabel":-1,"LabelID":0}},{"type":"Feature","id":36,"geometry":{"type":"Point","coordinates":[31.308144717000062,30.107132584000055,0]},"properties":{"OBJECTID":36,"Name":"مونجيني ترعة الجبل (ب)","FolderPath":"PT.kmz/PT","SymbolID":0,"AltMode":-1,"Base":0,"Snippet":"","PopupInfo":"محطة مونجيني ترعة الجبل (ب)\nامام فرع مونجيني\nاتجاه الحلمية\nType A","HasLabel":-1,"LabelID":0}},{"type":"Feature","id":37,"geometry":{"type":"Point","coordinates":[31.321683395000036,30.136315296000078,0]},"properties":{"OBJECTID":37,"Name":"مدرسة عمر مكرم","FolderPath":"PT.kmz/PT","SymbolID":0,"AltMode":-1,"Base":0,"Snippet":"","PopupInfo":"مدرسة عمر مكرم \nامام سلم المشاة\n\nType C","HasLabel":-1,"LabelID":0}},{"type":"Feature","id":38,"geometry":{"type":"Point","coordinates":[31.324082807000025,30.139190869000061,0]},"properties":{"OBJECTID":38,"Name":"مترو عزبة النخل الغربية","FolderPath":"PT.kmz/PT","SymbolID":0,"AltMode":-1,"Base":0,"Snippet":"","PopupInfo":"امام محطة مترو عزبة النخل الغربية\nType C","HasLabel":-1,"LabelID":0}},{"type":"Feature","id":39,"geometry":{"type":"Point","coordinates":[31.318782914000053,30.13094004900006,0]},"properties":{"OBJECTID":39,"Name":"مترو عين شمس الغربية","FolderPath":"PT.kmz/PT","SymbolID":0,"AltMode":-1,"Base":0,"Snippet":"","PopupInfo":"امام مترو عين شمس الغربية\nType B","HasLabel":-1,"LabelID":0}},{"type":"Feature","id":40,"geometry":{"type":"Point","coordinates":[31.316276643000037,30.126563126000065,0]},"properties":{"OBJECTID":40,"Name":"حاتي ابو حامد ش غرب السكة","FolderPath":"PT.kmz/PT","SymbolID":0,"AltMode":-1,"Base":0,"Snippet":"","PopupInfo":"Type B","HasLabel":-1,"LabelID":0}},{"type":"Feature","id":41,"geometry":{"type":"Point","coordinates":[31.313610188000041,30.121358048000047,0]},"properties":{"OBJECTID":41,"Name":"مترو المطرية غرب (أ)","FolderPath":"PT.kmz/PT","SymbolID":0,"AltMode":-1,"Base":0,"Snippet":"","PopupInfo":"محطة مترو المطرية غرب (أ)\nType B","HasLabel":-1,"LabelID":0}},{"type":"Feature","id":42,"geometry":{"type":"Point","coordinates":[31.326240277000068,30.138689297000042,0]},"properties":{"OBJECTID":42,"Name":"عزبة النخل (أ)","FolderPath":"PT.kmz/PT","SymbolID":0,"AltMode":-1,"Base":0,"Snippet":"","PopupInfo":"المحطة ناحية مترو عزبة النخل \nType B","HasLabel":-1,"LabelID":0}},{"type":"Feature","id":43,"geometry":{"type":"Point","coordinates":[31.326340492000043,30.138605737000034,0]},"properties":{"OBJECTID":43,"Name":"عزبة النخل (ب)","FolderPath":"PT.kmz/PT","SymbolID":0,"AltMode":-1,"Base":0,"Snippet":"","PopupInfo":"المحطة اما بنزينة عزبة النخل\nType B","HasLabel":-1,"LabelID":0}},{"type":"Feature","id":44,"geometry":{"type":"Point","coordinates":[31.323107958000037,30.132630496000047,0]},"properties":{"OBJECTID":44,"Name":"مزلقان عين شمس (أ)","FolderPath":"PT.kmz/PT","SymbolID":0,"AltMode":-1,"Base":0,"Snippet":"","PopupInfo":"مزلقان عين شمس اتجاه الحلمية\nType C","HasLabel":-1,"LabelID":0}},{"type":"Feature","id":45,"geometry":{"type":"Point","coordinates":[31.323504180000043,30.132719549000058,0]},"properties":{"OBJECTID":45,"Name":"مزلقان عين شمس (ب)","FolderPath":"PT.kmz/PT","SymbolID":0,"AltMode":-1,"Base":0,"Snippet":"","PopupInfo":"مزلقان عين شمس اتجاه عزبة النخل\nType C","HasLabel":-1,"LabelID":0}},{"type":"Feature","id":46,"geometry":{"type":"Point","coordinates":[31.32138317700003,30.129077284000061,0]},"properties":{"OBJECTID":46,"Name":"احمد عصمت (ب)","FolderPath":"PT.kmz/PT","SymbolID":0,"AltMode":-1,"Base":0,"Snippet":"","PopupInfo":"محطة احمد عصمت ناحية التأمينات الاجتماعية\nType C","HasLabel":-1,"LabelID":0}},{"type":"Feature","id":47,"geometry":{"type":"Point","coordinates":[31.321628713000052,30.129034042000058,0]},"properties":{"OBJECTID":47,"Name":"احمد عصمت (أ)","FolderPath":"PT.kmz/PT","SymbolID":0,"AltMode":-1,"Base":0,"Snippet":"","PopupInfo":"محطة احمد عصمت (اول الشارع)\nType C","HasLabel":-1,"LabelID":0}},{"type":"Feature","id":48,"geometry":{"type":"Point","coordinates":[31.317850272000044,30.121639935000076,0]},"properties":{"OBJECTID":48,"Name":"متحف المطرية (ب)","FolderPath":"PT.kmz/PT","SymbolID":0,"AltMode":-1,"Base":0,"Snippet":"","PopupInfo":"محطة متحف المطرية اتجاه الحلمية\nType C","HasLabel":-1,"LabelID":0}},{"type":"Feature","id":49,"geometry":{"type":"Point","coordinates":[31.317990698000074,30.12159706500006,0]},"properties":{"OBJECTID":49,"Name":"متحف المطرية (أ)","FolderPath":"PT.kmz/PT","SymbolID":0,"AltMode":-1,"Base":0,"Snippet":"","PopupInfo":"محطة متحف المطرية اتجاه عزبة النخل\nType C","HasLabel":-1,"LabelID":0}},{"type":"Feature","id":50,"geometry":{"type":"Point","coordinates":[31.316488197000069,30.112562005000029,0]},"properties":{"OBJECTID":50,"Name":"حلمية الزيتون (أ)","FolderPath":"PT.kmz/PT","SymbolID":0,"AltMode":-1,"Base":0,"Snippet":"","PopupInfo":"محطة الحلمية امام محل عصير مستر افوكادو\nType C","HasLabel":-1,"LabelID":0}},{"type":"Feature","id":51,"geometry":{"type":"Point","coordinates":[31.316677610000056,30.112462368000024,0]},"properties":{"OBJECTID":51,"Name":"حلمية الزيتون (ب)","FolderPath":"PT.kmz/PT","SymbolID":0,"AltMode":-1,"Base":0,"Snippet":"","PopupInfo":"محطة الحلمية امام سما سكان و ماركت دهب\nType C","HasLabel":-1,"LabelID":0}},{"type":"Feature","id":52,"geometry":{"type":"Point","coordinates":[31.313453013000071,30.121365325000056,0]},"properties":{"OBJECTID":52,"Name":"محطة مترو المطرية غرب (ب)","FolderPath":"PT.kmz/PT","SymbolID":0,"AltMode":-1,"Base":0,"Snippet":"","PopupInfo":"محطة مترو المطرية غرب (ب)\nناحية كشري هند\nType B","HasLabel":-1,"LabelID":0}},{"type":"Feature","id":53,"geometry":{"type":"Point","coordinates":[31.313614161000032,30.113597211000069,0]},"properties":{"OBJECTID":53,"Name":"مترو حلمية الزيتون الغربية (أ)","FolderPath":"PT.kmz/PT","SymbolID":0,"AltMode":-1,"Base":0,"Snippet":"","PopupInfo":"امام مترو حلمية الزيتون الغربية (أ)\nType B","HasLabel":-1,"LabelID":0}},{"type":"Feature","id":54,"geometry":{"type":"Point","coordinates":[31.312419564000038,30.113836022000044,0]},"properties":{"OBJECTID":54,"Name":"مترو حلمية الزيتون الغربية (ب)","FolderPath":"PT.kmz/PT","SymbolID":0,"AltMode":-1,"Base":0,"Snippet":"","PopupInfo":"امام مترو حلمية الزيتون الغربية (ب)\nامام كازيون و محل العصير\nType B","HasLabel":-1,"LabelID":0}},{"type":"Feature","id":55,"geometry":{"type":"Point","coordinates":[31.29654892800005,30.12819717900004,0]},"properties":{"OBJECTID":55,"Name":"رنين مسطرد (أ)","FolderPath":"PT.kmz/PT","SymbolID":0,"AltMode":-1,"Base":0,"Snippet":"","PopupInfo":"محطة رنين مسطرد (أ)\nامام رنين\nType C","HasLabel":-1,"LabelID":0}},{"type":"Feature","id":56,"geometry":{"type":"Point","coordinates":[31.296355670000025,30.128120208000041,0]},"properties":{"OBJECTID":56,"Name":"رنين مسطرد (ب)","FolderPath":"PT.kmz/PT","SymbolID":0,"AltMode":-1,"Base":0,"Snippet":"","PopupInfo":"محطة رنين مسطرد (ب)\nامام رنين الاتجاه المعاكس\nامام الثلاثي لزجاج السيارات\nType C","HasLabel":-1,"LabelID":0}}]
}